var stations = {
"type": "FeatureCollection",
"name": "StationsTramway",
"crs": { "type": "name", "properties": { "name": "urn:ogc:def:crs:OGC:1.3:CRS84" } },
"features": [
{ "type": "Feature", "properties": { "id": 1, "Nom": "MadinetAlirfane" }, "geometry": { "type": "Point", "coordinates": [ -6.864250397126378, 33.982452560100938 ] } },
{ "type": "Feature", "properties": { "id": 2, "Nom": "HayJamiiSouissi" }, "geometry": { "type": "Point", "coordinates": [ -6.860833673316423, 33.98592918964578 ] } },
{ "type": "Feature", "properties": { "id": 3, "Nom": "IbnRochd" }, "geometry": { "type": "Point", "coordinates": [ -6.857904503657089, 33.988965803697411 ] } },
{ "type": "Feature", "properties": { "id": 4, "Nom": "IbnSina" }, "geometry": { "type": "Point", "coordinates": [ -6.852164574406678, 33.995363023258875 ] } },
{ "type": "Feature", "properties": { "id": 5, "Nom": "AvenueFrance" }, "geometry": { "type": "Point", "coordinates": [ -6.848998322300329, 33.997342857842739 ] } },
{ "type": "Feature", "properties": { "id": 6, "Nom": "NationsUnies" }, "geometry": { "type": "Point", "coordinates": [ -6.843586426864844, 33.999752076732953 ] } },
{ "type": "Feature", "properties": { "id": 7, "Nom": "IbnKhaldoun" }, "geometry": { "type": "Point", "coordinates": [ -6.842417450159654, 34.004314080407639 ] } },
{ "type": "Feature", "properties": { "id": 8, "Nom": "BibliothequeNationale" }, "geometry": { "type": "Point", "coordinates": [ -6.841963758893955, 34.008877791224506 ] } },
{ "type": "Feature", "properties": { "id": 9, "Nom": "BabRouah" }, "geometry": { "type": "Point", "coordinates": [ -6.839441360640456, 34.011703571555124 ] } },
{ "type": "Feature", "properties": { "id": 10, "Nom": "GareDeRabat" }, "geometry": { "type": "Point", "coordinates": [ -6.836173343718229, 34.016002003136336 ] } },
{ "type": "Feature", "properties": { "id": 11, "Nom": "PlaceJoulane1" }, "geometry": { "type": "Point", "coordinates": [ -6.831409278963902, 34.018008726079032 ] } },
{ "type": "Feature", "properties": { "id": 12, "Nom": "PlaceJoulane2" }, "geometry": { "type": "Point", "coordinates": [ -6.831272130516021, 34.018797137611877 ] } },
{ "type": "Feature", "properties": { "id": 13, "Nom": "TourHassan" }, "geometry": { "type": "Point", "coordinates": [ -6.826561354367813, 34.019353103566985 ] } },
{ "type": "Feature", "properties": { "id": 14, "Nom": "PlaceNovembre1" }, "geometry": { "type": "Point", "coordinates": [ -6.825220736202048, 34.024984365287004 ] } },
{ "type": "Feature", "properties": { "id": 15, "Nom": "PlaceNovembre2" }, "geometry": { "type": "Point", "coordinates": [ -6.825288818118934, 34.025375567734564 ] } },
{ "type": "Feature", "properties": { "id": 16, "Nom": "PlaceNovembre3" }, "geometry": { "type": "Point", "coordinates": [ -6.822077563887272, 34.02535312198426 ] } },
{ "type": "Feature", "properties": { "id": 17, "Nom": "BabMrissa" }, "geometry": { "type": "Point", "coordinates": [ -6.819369876615074, 34.031943989346203 ] } },
{ "type": "Feature", "properties": { "id": 18, "Nom": "GareDeSale" }, "geometry": { "type": "Point", "coordinates": [ -6.816227207309128, 34.037792304840728 ] } },
{ "type": "Feature", "properties": { "id": 19, "Nom": "Diar" }, "geometry": { "type": "Point", "coordinates": [ -6.815398372574083, 34.040680879130868 ] } },
{ "type": "Feature", "properties": { "id": 20, "Nom": "OBRA" }, "geometry": { "type": "Point", "coordinates": [ -6.811004925426976, 34.043092354080187 ] } },
{ "type": "Feature", "properties": { "id": 21, "Nom": "Barid" }, "geometry": { "type": "Point", "coordinates": [ -6.80641097754584, 34.045384804033652 ] } },
{ "type": "Feature", "properties": { "id": 22, "Nom": "Tabriquet" }, "geometry": { "type": "Point", "coordinates": [ -6.800672997454579, 34.047468705633186 ] } },
{ "type": "Feature", "properties": { "id": 23, "Nom": "HayKarima" }, "geometry": { "type": "Point", "coordinates": [ -6.794547922073443, 34.053790191912796 ] } },
{ "type": "Feature", "properties": { "id": 24, "Nom": "YaagoubElmansour" }, "geometry": { "type": "Point", "coordinates": [ -6.871333958945958, 33.99180172106599 ] } },
{ "type": "Feature", "properties": { "id": 25, "Nom": "OuedDahab" }, "geometry": { "type": "Point", "coordinates": [ -6.871264587388644, 33.995624726668922 ] } },
{ "type": "Feature", "properties": { "id": 26, "Nom": "Essalam" }, "geometry": { "type": "Point", "coordinates": [ -6.866915546902107, 34.001020245186751 ] } },
{ "type": "Feature", "properties": { "id": 27, "Nom": "AlHouria" }, "geometry": { "type": "Point", "coordinates": [ -6.863382180949726, 34.004988928139042 ] } },
{ "type": "Feature", "properties": { "id": 28, "Nom": "HopitalMlyYoussef" }, "geometry": { "type": "Point", "coordinates": [ -6.859134380033823, 34.01071632121333 ] } },
{ "type": "Feature", "properties": { "id": 29, "Nom": "SidiMohBenabdallah" }, "geometry": { "type": "Point", "coordinates": [ -6.854600899862414, 34.016140647945001 ] } },
{ "type": "Feature", "properties": { "id": 30, "Nom": "PlaceRussie" }, "geometry": { "type": "Point", "coordinates": [ -6.849929779881059, 34.018745712943257 ] } },
{ "type": "Feature", "properties": { "id": 31, "Nom": "BabLhad" }, "geometry": { "type": "Point", "coordinates": [ -6.842869787981695, 34.020626196273227 ] } },
{ "type": "Feature", "properties": { "id": 32, "Nom": "MedinaRabat" }, "geometry": { "type": "Point", "coordinates": [ -6.838794086941808, 34.021789606234492 ] } },
{ "type": "Feature", "properties": { "id": 33, "Nom": "BabChalla" }, "geometry": { "type": "Point", "coordinates": [ -6.834158732001304, 34.023638463307392 ] } },
{ "type": "Feature", "properties": { "id": 34, "Nom": "Arrazi" }, "geometry": { "type": "Point", "coordinates": [ -6.812544626527004, 34.035256837946214 ] } },
{ "type": "Feature", "properties": { "id": 35, "Nom": "Bettana" }, "geometry": { "type": "Point", "coordinates": [ -6.806570021561349, 34.034825356615215 ] } },
{ "type": "Feature", "properties": { "id": 36, "Nom": "HassanII" }, "geometry": { "type": "Point", "coordinates": [ -6.79955051833823, 34.034548213056794 ] } },
{ "type": "Feature", "properties": { "id": 37, "Nom": "HayAssalam" }, "geometry": { "type": "Point", "coordinates": [ -6.793251752471866, 34.034077781942486 ] } },
{ "type": "Feature", "properties": { "id": 38, "Nom": "Zarbiya" }, "geometry": { "type": "Point", "coordinates": [ -6.786832728703262, 34.032229052329228 ] } },
{ "type": "Feature", "properties": { "id": 39, "Nom": "MlySmail" }, "geometry": { "type": "Point", "coordinates": [ -6.780439476403612, 34.030900448827055 ] } },
{ "type": "Feature", "properties": { "id": 40, "Nom": "Rocade" }, "geometry": { "type": "Point", "coordinates": [ -6.771615512547386, 34.028842907130432 ] } },
{ "type": "Feature", "properties": { "id": 41, "Nom": "BabAlqarya" }, "geometry": { "type": "Point", "coordinates": [ -6.766409186582079, 34.02787724000472 ] } },
{ "type": "Feature", "properties": { "id": 42, "Nom": "Hassin" }, "geometry": { "type": "Point", "coordinates": [ -6.761629140026406, 34.026767729126078 ] } },
{ "type": "Feature", "properties": { "id": 43, "Nom": "HayWafa" }, "geometry": { "type": "Point", "coordinates": [ -6.758731460297241, 34.026129937911534 ] } },
{ "type": "Feature", "properties": { "id": 44, "Nom": "HayMlyAbdallah" }, "geometry": { "type": "Point", "coordinates": [ -6.75421083463907, 34.025364938909256 ] } }
]
}
